City,Cloudiness,Country,Date,Humidity,Lat,Lng,Max Temp,Wind Speed
Mackay,50,AU,1635041950,66,-21.15,149.2,90.68,12.84
Ippy,74,CF,1635041950,95,6.2679,21.2247,69.1,2.44
Dikson,100,RU,1635041269,87,73.5069,80.5464,9.25,14.74
Mataura,99,NZ,1635041377,55,-46.1927,168.8643,67.66,1.54
Vaini,20,TO,1635041393,73,-21.2,-175.2,78.96,9.22
Vila Franca do Campo,98,PT,1635041556,83,37.7167,-25.4333,64.81,5.66
Rādhanpur,2,IN,1635041950,69,23.8333,71.6,77.59,6.2
Ushuaia,75,AR,1635041325,86,-54.8,-68.3,33.46,12.66
Vila Velha,75,BR,1635041488,88,-20.3297,-40.2925,73.35,8.05
Tuktoyaktuk,93,CA,1635041378,93,69.4541,-133.0374,25.23,3.74
Bosaso,78,SO,1635041888,64,11.2842,49.1816,76.48,2.15
Lebu,13,CL,1635041221,93,-37.6167,-73.65,49.28,5.97
Khatanga,97,RU,1635041202,92,71.9667,102.5,7.45,16.04
Yangi Marg`ilon,0,UZ,1635041550,70,40.4272,71.7189,38.12,6.91
Westport,90,US,1635041407,69,41.1415,-73.3579,56.32,3.0
Atuona,15,PF,1635041390,78,-9.8,-139.0333,78.13,18.1
Jamestown,75,US,1635041379,95,42.097,-79.2353,44.29,1.99
Chui,56,UY,1635041451,95,-33.6971,-53.4616,54.63,6.87
Sinnamary,90,GF,1635041517,87,5.3833,-52.95,78.42,10.09
Hong Kong,13,HK,1635041163,72,22.2855,114.1577,73.04,1.01
Kapaa,40,US,1635041409,77,22.0752,-159.319,84.18,3.0
Barrow,90,US,1635041382,80,71.2906,-156.7887,30.22,12.66
Botad,0,IN,1635041952,72,22.1667,71.6667,74.32,4.94
Verkhnevilyuysk,98,RU,1635041952,76,63.4453,120.3167,33.73,11.36
Mount Gambier,92,AU,1635041801,56,-37.8333,140.7667,54.23,10.29
Codrington,98,AU,1635041490,62,-38.2667,141.9667,53.67,14.99
Onokhoy,100,RU,1635041953,66,51.932,108.0747,28.15,2.73
Ribeira Grande,54,PT,1635041376,64,38.5167,-28.7,67.12,11.21
Lockhart,1,US,1635041953,79,28.6194,-81.4426,77.72,5.75
Esperance,5,AU,1635041493,41,-33.8667,121.9,71.13,14.54
Ramacca,100,IT,1635041953,88,37.3881,14.6927,71.22,15.12
São Filipe,7,CV,1635041480,70,14.8961,-24.4956,78.75,10.0
Kumul,100,CN,1635041551,44,42.8,93.45,47.91,2.73
Kieta,19,PG,1635041954,74,-6.2167,155.6333,83.98,5.86
Esim,55,GH,1635041507,88,4.8699,-2.2405,76.66,2.95
Cape Town,2,ZA,1635041376,72,-33.9258,18.4232,55.11,5.88
Ilhabela,83,BR,1635041671,83,-23.7781,-45.3581,72.09,4.43
Bandarbeyla,40,SO,1635041512,76,9.4942,50.8122,77.34,4.9
Lichinga,0,MZ,1635041954,60,-13.3128,35.2406,68.09,9.22
San Cristobal,100,VE,1635041509,99,7.7669,-72.225,71.78,2.51
Warrington,75,GB,1635041955,77,53.3925,-2.5802,53.71,1.99
Juruti,100,BR,1635041955,87,-2.1522,-56.0922,77.2,2.98
Carnarvon,0,AU,1635041383,69,-24.8667,113.6333,75.27,14.97
Busselton,99,AU,1635041376,58,-33.65,115.3333,75.04,6.35
Pucallpa,20,PE,1635041955,66,-8.3791,-74.5539,86.04,4.61
Bokovskaya,56,RU,1635041956,63,49.229,41.8306,44.38,7.25
Mar del Plata,20,AR,1635041396,69,-38.0023,-57.5575,53.01,3.0
Rikitea,100,PF,1635041382,80,-23.1203,-134.9692,74.91,19.13
Ulaangom,76,MN,1635041956,44,49.9811,92.0667,37.4,0.78
George Town,20,MY,1635041097,79,5.4112,100.3354,84.13,4.61
Bredasdorp,59,ZA,1635041110,72,-34.5322,20.0403,49.28,1.81
Port Alfred,19,ZA,1635041412,72,-33.5906,26.891,57.25,14.85
Saskylakh,100,RU,1635041400,94,71.9167,114.0833,6.8,14.0
Palmerston,40,AU,1635041957,51,-12.486,130.9833,93.92,10.36
Pangkalanbuun,39,ID,1635041957,68,-2.6833,111.6167,86.61,0.38
Avarua,90,CK,1635041406,53,-21.2078,-159.775,75.25,8.05
Cherrapunjee,43,IN,1635041958,61,25.3,91.7,63.81,0.47
Meulaboh,84,ID,1635041490,76,4.1363,96.1285,81.09,1.48
Sargatskoye,7,RU,1635041958,88,55.6101,73.4972,43.93,12.59
Punta Arenas,20,CL,1635041386,81,-53.15,-70.9167,37.51,17.27
Marawi,89,PH,1635041498,61,7.9986,124.2928,73.65,2.93
Hermanus,26,ZA,1635041380,70,-34.4187,19.2345,53.91,3.51
Broome,90,US,1635041402,87,42.2506,-75.833,44.78,3.44
Bamenda,83,CM,1635041959,94,5.9527,10.1582,61.34,1.07
Motygino,100,RU,1635041959,97,58.1831,94.7592,37.47,12.5
Butaritari,51,KI,1635041389,72,3.0707,172.7902,81.21,7.23
Sol'vychegodsk,100,RU,1635041959,95,61.3305,46.9156,31.64,6.17
Upernavik,100,GL,1635041392,90,72.7868,-56.1549,18.27,13.53
Denpasar,20,ID,1635041960,70,-8.65,115.2167,85.71,10.36
Bluff,100,NZ,1635041137,92,-46.6,168.3333,52.77,4.76
Rome,90,US,1635041556,87,43.2128,-75.4557,47.66,4.61
Norman Wells,1,CA,1635041462,94,65.282,-126.8329,28.02,2.46
Amuntai,100,ID,1635041960,63,-2.4177,115.2494,87.96,1.05
Poum,33,NC,1635041961,77,-20.2333,164.0167,74.19,6.98
New Norfolk,100,AU,1635041396,53,-42.7826,147.0587,56.66,3.0
Los Llanos de Aridane,75,ES,1635041541,79,28.6585,-17.9182,65.12,8.01
Albany,83,US,1635041161,77,42.6001,-73.9662,47.57,1.01
Mount Isa,0,AU,1635041518,23,-20.7333,139.5,96.57,10.36
Lodja,100,CD,1635041961,99,-3.4833,23.4333,68.79,2.95
Salalah,0,OM,1635041419,68,17.0151,54.0924,73.49,5.75
Aykino,40,RU,1635041962,91,62.2248,49.9922,27.72,3.6
Onguday,100,RU,1635041962,67,50.75,86.15,34.12,3.04
Saint-Philippe,40,RE,1635041381,84,-21.3585,55.7679,72.99,13.91
Makakilo City,1,US,1635041466,54,21.3469,-158.0858,82.72,9.22
Kawalu,86,ID,1635041919,69,-7.3817,108.2082,83.01,3.42
Neiafu,40,TO,1635041962,61,-18.65,-173.9833,79.48,6.91
Khovd,3,MN,1635041380,38,48.0056,91.6419,35.76,5.91
Berkåk,100,NO,1635041963,89,62.825,10.0118,34.43,7.9
Cidreira,100,BR,1635041510,93,-30.1811,-50.2056,64.92,10.18
Rumilly,0,FR,1635041963,90,45.8667,5.95,41.94,3.44
Northfield,1,US,1635041344,73,44.4583,-93.1616,44.28,0.0
Senneterre,25,CA,1635041964,94,48.3835,-77.2328,39.42,3.4
Nikolskoye,75,RU,1635041416,89,59.7035,30.7861,34.39,8.99
Praia,20,CV,1635041506,78,14.9215,-23.5087,77.54,13.8
Tasiilaq,100,GL,1635041395,96,65.6145,-37.6368,32.16,7.58
Broken Hill,0,AU,1635041403,30,-31.95,141.4333,65.16,12.17
Zhezkazgan,2,KZ,1635041964,44,47.8043,67.7144,40.33,7.14
Altukhovo,95,RU,1635041965,77,52.67,34.36,37.67,11.05
San Patricio,1,US,1635041527,71,28.017,-97.5169,78.89,9.24
Hilo,20,US,1635041336,70,19.7297,-155.09,81.28,8.05
Jalu,19,LY,1635041529,40,29.0331,21.5482,69.1,10.04
Imeni Poliny Osipenko,12,RU,1635041965,71,52.4201,136.4853,39.81,2.17
Hervey Bay,99,AU,1635041965,73,-25.2986,152.8535,89.71,15.35
Ixtapa,40,MX,1635041524,84,20.7,-105.2,83.43,0.0
Pevek,100,RU,1635041395,92,69.7008,170.3133,9.32,5.97
Ninghai,100,CN,1635041966,85,29.2892,121.4247,65.88,3.8
Pochutla,51,MX,1635041966,90,15.7432,-96.4661,76.82,3.62
Isangel,75,VU,1635041417,78,-19.55,169.2667,80.71,9.22
Gamba,100,GA,1635041479,88,-2.65,10.0,75.97,4.47
Gornyy,100,RU,1635041967,75,55.1153,83.9059,43.79,21.79
Sarangani,100,PH,1635041967,72,5.4033,125.4636,83.66,7.96
Kavaratti,66,IN,1635041967,77,10.5669,72.642,80.46,1.95
Yangambi,100,CD,1635041968,98,0.8102,24.4336,69.58,0.29
Cherskiy,90,RU,1635041473,100,68.75,161.3,-4.09,4.18
Gao,88,ML,1635041968,40,16.6362,1.637,85.41,7.78
Torbay,100,CA,1635041132,96,47.6666,-52.7314,59.76,10.09
Qaanaaq,0,GL,1635041383,58,77.484,-69.3632,-1.07,7.78
Chicama,81,PE,1635041522,80,-7.8447,-79.1469,65.16,6.78
Ostrovnoy,95,RU,1635041882,89,68.0531,39.5131,25.93,18.01
Hobart,75,AU,1635041394,62,-42.8794,147.3294,57.02,5.01
Ilulissat,90,GL,1635041450,74,69.2167,-51.1,23.02,14.97
Port Elizabeth,2,ZA,1635041386,65,-33.918,25.5701,57.09,11.23
Vardø,73,NO,1635041969,66,70.3705,31.1107,35.98,23.44
Varzelândia,48,BR,1635041969,80,-15.7014,-44.0275,71.11,3.71
Lavrentiya,100,RU,1635041467,83,65.5833,-171.0,24.66,9.51
Lüderitz,0,NA,1635041392,69,-26.6481,15.1594,56.61,16.33
Stříbro,0,CZ,1635041970,85,49.7529,13.0041,38.66,1.36
Hailey,90,US,1635041545,70,43.5196,-114.3153,42.66,5.75
Apatity,51,RU,1635041970,82,67.5641,33.4031,23.63,5.79
Diu,5,IN,1635041970,68,20.7141,70.9822,76.95,4.83
San Fernando del Valle de Catamarca,0,AR,1635041518,30,-28.4696,-65.7852,65.64,3.06
Linxia Chengguanzhen,100,CN,1635041391,68,35.6003,103.2064,48.11,0.67
Botou,9,CN,1635041971,50,38.0667,116.5667,57.72,5.46
Vostok,0,RU,1635041948,46,46.4856,135.8833,45.95,7.58
Shakawe,61,BW,1635041971,50,-18.3667,21.85,73.45,3.85
Qaqortoq,23,GL,1635041971,67,60.7167,-46.0333,34.3,5.84
Provideniya,100,RU,1635041377,78,64.3833,-173.3,25.07,8.25
Singaparna,85,ID,1635041972,69,-7.3515,108.111,82.04,3.4
Te Anau,100,NZ,1635041468,85,-45.4167,167.7167,55.99,1.1
Mangan,56,IN,1635041972,77,27.5167,88.5333,69.8,0.4
Ouargaye,37,BF,1635041972,74,11.5033,0.0572,77.32,5.48
Airai,32,TL,1635041143,34,-8.9266,125.4092,79.95,1.59
Mont-Dore,32,NC,1635041973,60,-22.2833,166.5833,80.58,11.43
Jacareacanga,77,BR,1635041973,97,-6.2222,-57.7528,73.98,2.19
Aswān,0,EG,1635041973,45,24.0934,32.907,70.2,9.57
Tual,80,ID,1635041413,75,-5.6667,132.75,84.15,11.95
Fareydūnshahr,1,IR,1635041974,40,32.941,50.121,37.27,3.98
Saint Paul Harbor,97,US,1635041441,84,57.79,-152.4072,43.34,24.2
Brainerd,1,US,1635041974,80,46.358,-94.2008,37.65,0.0
Spearfish,90,US,1635041901,83,44.4908,-103.8594,49.32,1.99
Venado Tuerto,0,AR,1635041975,35,-33.7456,-61.9688,54.77,6.26
Jingdezhen,100,CN,1635041975,92,29.2947,117.2079,57.99,1.83
Yerbogachën,99,RU,1635041388,74,61.2767,108.0108,32.0,12.33
Puerto Ayora,85,EC,1635041384,89,-0.7393,-90.3518,69.08,7.94
Inhambane,1,MZ,1635041481,91,-23.865,35.3833,73.78,13.42
Lagos,98,NG,1635041976,96,6.5833,3.75,77.32,1.43
Marquette,100,US,1635041976,82,46.5333,-87.6335,36.36,7.29
Tak,87,TH,1635041976,81,16.5833,98.8333,74.91,3.33
Baculin,100,PH,1635041977,71,7.4525,126.5842,84.63,1.92
Alugan,100,PH,1635041977,73,12.2188,125.4808,84.6,9.17
Riyadh,0,SA,1635041725,24,24.6877,46.7219,75.34,9.15
Davila,28,PH,1635041977,72,18.4726,120.5763,84.13,20.31
Hamilton,90,US,1635041444,87,39.1834,-84.5333,55.78,0.0
Tezu,8,IN,1635041559,61,27.9167,96.1667,77.16,1.48
Cairns,4,AU,1635041978,60,-16.9167,145.7667,93.94,9.22
Klaksvík,100,FO,1635041411,90,62.2266,-6.589,49.12,13.87
Nishihara,75,JP,1635041535,65,26.1842,127.7558,77.05,10.36
Giaveno,0,IT,1635041978,82,45.047,7.3492,50.79,1.01
Aberystwyth,100,GB,1635041978,81,52.4155,-4.0829,53.71,20.69
Thompson,100,CA,1635041393,74,55.7435,-97.8558,35.76,4.38
Colac,34,AU,1635041979,47,-38.3333,143.5833,59.16,12.39
Kagal'nitskaya,100,RU,1635041979,87,46.8806,40.1466,52.07,2.26
Saint-Augustin,100,CA,1635041979,94,51.226,-58.6502,40.84,12.66
Ystad,95,SE,1635041763,82,55.4297,13.8204,41.99,7.36
Māngrol,27,IN,1635041909,64,21.1167,70.1167,80.11,9.35
Babu,5,CN,1635041980,60,24.4167,111.5167,65.89,5.99
College,75,US,1635041447,79,64.8569,-147.8028,35.58,0.0
Andenes,75,NO,1635041928,93,69.3143,16.1194,30.18,4.61
Colorado Springs,75,US,1635041698,27,38.8339,-104.8214,62.04,1.99
Yafran,94,LY,1635041980,46,32.0633,12.5286,68.95,9.17
Portland,75,US,1635041915,95,45.5234,-122.6762,55.81,1.01
Ancud,73,CL,1635041439,77,-41.8697,-73.8203,47.73,8.63
Denizli Province,0,TR,1635041981,59,37.8402,29.0698,45.45,1.52
East London,16,ZA,1635041396,66,-33.0153,27.9116,59.05,16.62
Sistranda,100,NO,1635041797,81,63.7256,8.834,42.91,15.86
Pilar,78,BR,1635041981,90,-9.5972,-35.9567,78.73,6.08
Pisco,48,PE,1635041520,82,-13.7,-76.2167,63.01,13.8
Berlevåg,98,NO,1635041389,64,70.8578,29.0864,37.04,22.66
Grand Gaube,85,MU,1635041387,75,-20.0064,57.6608,74.37,5.01
Nacogdoches,1,US,1635041981,88,31.6002,-94.6335,74.1,6.91
Vao,3,NC,1635041982,74,-22.6667,167.4833,72.52,13.31
Coyhaique,40,CL,1635041490,75,-45.5752,-72.0662,42.75,4.61
Gushikawa,20,JP,1635041962,66,26.3544,127.8686,78.03,9.22
Tazovsky,100,RU,1635041499,98,67.4667,78.7,28.45,6.49
Camacha,75,PT,1635041982,60,33.0833,-16.3333,67.42,8.05
Touros,65,BR,1635041983,81,-5.1989,-35.4608,79.7,12.84
Cabo San Lucas,1,MX,1635041983,75,22.8909,-109.9124,82.62,4.0
Miramar,20,US,1635041983,83,25.9873,-80.2323,82.42,5.75
Kabalo,28,CD,1635041984,83,-6.05,26.9167,71.08,1.05
Río Gallegos,0,AR,1635041513,60,-51.6226,-69.2181,37.45,14.97
Longyearbyen,0,SJ,1635041404,86,78.2186,15.6401,15.64,6.91
Hofn,100,IS,1635041984,74,64.2539,-15.2082,45.01,2.82
La Mira,100,MX,1635041984,89,18.035,-102.3266,77.09,3.87
Hithadhoo,100,MV,1635041985,71,-0.6,73.0833,82.74,11.34
Madang,69,PG,1635041985,64,-5.2246,145.7966,86.43,4.74
Āsosa,22,ET,1635041985,61,10.0667,34.5333,61.9,4.88
Houma,100,US,1635041985,85,29.5958,-90.7195,77.0,8.01
Bambous Virieux,90,MU,1635041105,72,-20.3428,57.7575,74.21,11.52
Playas,96,EC,1635041986,84,-2.6333,-80.3833,71.91,9.62
Kropotkin,100,RU,1635041986,88,45.4375,40.5756,54.55,5.08
Fairbanks,1,US,1635041445,79,64.8378,-147.7164,35.6,0.0
Puerto Escondido,87,MX,1635041987,83,15.85,-97.0667,78.66,2.98
Lumphat,99,KH,1635041421,86,13.4878,106.9816,75.47,3.4
Malia,0,GR,1635041987,72,35.2833,25.4667,64.81,3.11
Mergen,0,CN,1635041987,50,49.1833,125.2167,47.57,6.02
Caiapônia,3,BR,1635041987,61,-16.9567,-51.8103,76.8,11.45
Hasaki,27,JP,1635041410,47,35.7333,140.8333,66.29,5.48
Rio Branco,0,BR,1635041988,78,-9.9747,-67.81,83.01,8.05
Castro,100,BR,1635041988,97,-24.7911,-50.0119,58.24,12.24
Sitka,90,US,1635041284,66,57.0531,-135.33,48.09,11.5
Wewak,38,PG,1635041988,69,-3.5534,143.6268,85.28,9.22
San Quintín,7,MX,1635041490,74,30.4833,-115.95,63.09,20.42
Buluang,100,PH,1635041989,74,13.3068,123.3425,83.73,4.03
Nanortalik,16,GL,1635041395,68,60.1432,-45.2371,35.33,21.21
Pareora,81,NZ,1635041989,76,-44.4871,171.2132,63.18,7.7
Baixa Grande,98,BR,1635041989,91,-11.9597,-40.1681,72.93,5.39
Zhangjiakou,9,CN,1635041990,36,40.81,114.8794,48.56,1.77
Lagoa,94,PT,1635041470,59,39.05,-27.9833,66.88,12.37
Ranau,99,MY,1635041990,71,5.9538,116.6641,77.65,0.92
Nova Granada,9,BR,1635041990,48,-20.5339,-49.3142,84.45,9.1
Namatanai,91,PG,1635041491,70,-3.6667,152.4333,84.78,7.36
Coquimbo,0,CL,1635041311,76,-29.9533,-71.3436,55.13,1.14
Tura,25,IN,1635041991,71,25.5198,90.2201,72.28,1.34
Souillac,27,MU,1635041509,74,-20.5167,57.5167,74.35,11.05
Waddān,100,LY,1635041991,22,29.1614,16.139,78.82,11.18
San-Pédro,95,CI,1635041992,92,4.7485,-6.6363,75.9,2.91
Itarema,69,BR,1635041441,80,-2.9248,-39.9167,79.79,12.35
Jardim,100,BR,1635041992,79,-21.4803,-56.1381,75.74,14.12
Mukhen,0,RU,1635041992,54,48.1,136.1,48.2,10.89
Saint-Ambroise,100,CA,1635041993,79,48.5501,-71.3324,36.57,2.42
Vanavara,100,RU,1635041993,94,60.34,102.2797,32.2,12.86
Nagapattinam,31,IN,1635041993,79,10.7667,79.8333,80.73,7.2
Saint-Pierre,90,RE,1635041530,78,-21.3393,55.4781,73.08,5.75
Khanbari,95,NP,1635041838,84,27.3747,87.2039,66.63,0.16
Safi,7,MA,1635041470,80,32.2994,-9.2372,62.83,13.42
Baijiantan,3,CN,1635041477,36,45.6333,85.1833,41.07,2.04
Alice Springs,75,AU,1635041994,22,-23.7,133.8833,78.35,17.27
Tautira,100,PF,1635041994,84,-17.7333,-149.15,80.62,19.42
Kaitangata,95,NZ,1635041447,68,-46.2817,169.8464,59.81,5.35
Saldanha,0,ZA,1635041416,72,-33.0117,17.9442,57.0,8.7
Båtsfjord,95,NO,1635041995,70,70.6345,29.7185,34.45,19.69
Paraíso,68,CR,1635041995,95,9.8383,-83.8656,65.26,1.28
Shache,5,CN,1635041995,35,38.4167,77.2406,46.63,1.66
San Jose,90,US,1635041893,63,37.3394,-121.895,64.81,9.22
Margate,10,GB,1635041996,74,51.3813,1.3862,55.9,7.0
Plettenberg Bay,48,ZA,1635041996,78,-34.0527,23.3716,54.34,6.69
Barsovo,100,RU,1635041996,78,61.1667,73.1667,39.33,18.41
Verkhoyansk,100,RU,1635041996,94,67.5447,133.385,8.38,2.71
Windhoek,0,NA,1635041729,22,-22.5594,17.0832,58.1,5.75
Cap Malheureux,81,MU,1635041458,75,-19.9842,57.6142,74.46,5.01
Severo-Kuril'sk,73,RU,1635041139,86,50.6789,156.125,40.66,11.41
Fenyi,96,CN,1635041997,69,27.8112,114.6681,61.11,1.72
Lata,0,PT,1635041466,67,40.1629,-8.3327,49.06,2.37
Waipawa,99,NZ,1635041997,66,-41.4122,175.5153,59.63,8.12
Hunchun,0,CN,1635041998,39,42.8675,130.3581,54.68,5.84
Mossamedes,99,AO,1635041863,73,-15.1961,12.1522,63.77,6.42
Port Hardy,29,CA,1635041436,87,50.6996,-127.4199,47.34,13.67
Moree,0,AU,1635041998,26,-29.4667,149.85,80.62,14.97
Devin,96,BG,1635041998,98,41.7433,24.4,49.1,3.89
Kaoma,42,ZM,1635041999,63,-14.7833,24.8,68.16,2.66
San Miguel de Tucumán,1,AR,1635041999,56,-26.8241,-65.2226,68.0,4.61
Arraial do Cabo,0,BR,1635041999,89,-22.9661,-42.0278,70.95,32.26
‘Āhuimanu,20,US,1635041906,62,21.4447,-157.8378,83.91,9.22
Baruun-Urt,8,MN,1635041999,31,46.6806,113.2792,41.43,10.87
Apastovo,57,RU,1635042000,87,55.2029,48.5109,41.31,9.35
Port-Gentil,99,GA,1635041491,85,-0.7193,8.7815,77.54,9.42
Petropavlovsk-Kamchatskiy,75,RU,1635041452,65,53.0452,158.6483,41.59,6.71
Shrewsbury,75,GB,1635041786,77,52.7101,-2.7521,53.69,12.66
Giohar,6,SO,1635042001,87,2.7809,45.5005,75.94,6.15
Rocha,36,UY,1635041779,94,-34.4833,-54.3333,52.95,8.81
Chokurdakh,100,RU,1635042002,97,70.6333,147.9167,-1.8,6.08
Ponta do Sol,15,PT,1635042002,65,32.6667,-17.1,70.43,5.95
Tharād,1,IN,1635042003,72,24.3961,71.6267,76.64,8.37
Sydney,20,AU,1635041752,63,-33.8679,151.2073,78.55,5.01
Deputatsky,100,RU,1635042004,97,69.3,139.9,-0.33,3.02
Mayo,1,US,1635041814,87,38.8876,-76.5119,58.21,1.99
Puga,82,MX,1635042005,98,21.5833,-104.8167,73.78,2.17
Mitoc,8,RO,1635042005,68,48.1,27.0333,46.62,12.55
Pandan,100,PH,1635042006,85,14.0453,124.1694,79.97,8.12
Porbandar,20,IN,1635042006,83,21.6422,69.6093,75.18,3.44
Petatlán,100,MX,1635041440,95,17.5167,-101.2667,78.6,6.53
Synya,70,RU,1635042007,96,65.3718,58.0387,22.17,6.06
Verkh-Usugli,12,RU,1635042007,58,52.7,115.1667,37.0,2.33
Vaasa,90,FI,1635042008,93,63.096,21.6158,30.94,2.3
Camaná,88,PE,1635042008,80,-16.6228,-72.7111,62.01,7.87
Maputo,40,MZ,1635042009,67,-25.9653,32.5892,73.08,20.0
Bethel,90,US,1635041411,80,41.3712,-73.414,54.19,0.0
Steinbach am Taunus,0,DE,1635042009,94,50.1667,8.5667,44.37,4.61
Banda Aceh,100,ID,1635042009,75,5.5577,95.3222,81.37,0.98
Yellowknife,100,CA,1635041437,86,62.456,-114.3525,41.56,13.0
Salinópolis,100,BR,1635041762,83,-0.6136,-47.3561,80.2,9.6
Gayny,70,RU,1635042010,93,60.3071,54.3241,35.38,5.26
Monywa,74,MM,1635042010,82,22.1167,95.1333,77.9,3.47
Laas,2,IT,1635041487,48,46.6166,10.7002,39.61,1.7
Yangcun,1,CN,1635042010,49,39.3639,117.0603,58.98,5.37
Faanui,74,PF,1635041431,81,-16.4833,-151.75,78.12,13.49
Vestmannaeyjar,100,IS,1635042011,84,63.4427,-20.2734,47.16,16.44
Leningradskiy,100,RU,1635042011,94,69.3833,178.4167,10.87,8.93
Geraldton,0,AU,1635041338,28,-28.7667,114.6,86.41,5.75
Lorengau,98,PG,1635041416,70,-2.0226,147.2712,85.06,10.31
Doha,0,QA,1635042011,67,25.2867,51.5333,76.98,4.61
Kamaishi,3,JP,1635041446,52,39.2667,141.8833,60.08,4.9
Nara,68,JP,1635042012,39,34.6851,135.8049,62.49,2.35
Taltal,4,CL,1635041434,79,-25.4,-70.4833,58.33,2.91
Galveston,100,US,1635042012,73,29.3669,-94.9669,72.05,16.84
Bengkulu,99,ID,1635041418,84,-3.8004,102.2655,78.62,3.85
Escanaba,90,US,1635042012,72,45.7453,-87.0646,46.71,3.44
Bariloche,40,AR,1635042013,61,-41.1456,-71.3082,44.35,16.11
Grindavik,75,IS,1635041517,93,63.8424,-22.4338,46.87,12.66
Narsaq,38,GL,1635041955,53,60.9167,-46.05,34.02,4.76
Fortuna,90,US,1635041448,89,40.5982,-124.1573,58.98,1.99
Maragogi,26,BR,1635042013,85,-9.0122,-35.2225,78.01,10.31
Morón,0,AR,1635041874,54,-34.6534,-58.6198,60.98,4.0
São João da Barra,4,BR,1635041475,89,-21.6403,-41.0511,72.63,24.07
Arroio Grande,28,BR,1635042014,97,-32.2375,-53.0869,55.71,6.62
Akdağmadeni,7,TR,1635042014,25,39.6603,35.8836,42.73,2.93
Somerset East,98,ZA,1635042014,75,-32.7217,25.588,48.33,5.19
Oranjemund,0,NA,1635041474,80,-28.55,16.4333,55.47,11.59
Ahipara,25,NZ,1635041458,79,-35.1667,173.1667,65.14,7.9
Baishishan,0,CN,1635042015,48,43.5833,127.5667,49.28,5.53
Ulladulla,63,AU,1635041468,57,-35.35,150.4667,70.77,7.38
Smithers,15,CA,1635041522,92,54.7804,-127.1743,37.65,1.28
Pangnirtung,98,CA,1635041420,85,66.1451,-65.7125,23.45,5.66
Batagay-Alyta,100,RU,1635041467,93,67.8006,130.4114,6.46,1.95
Alekseyevsk,100,RU,1635041460,77,57.8406,108.3492,35.6,10.27
Kushiro,0,JP,1635041470,65,42.975,144.3747,51.51,13.58
Lompoc,1,US,1635042015,83,34.6391,-120.4579,63.57,23.0
Bulgan,100,MN,1635041735,41,48.8125,103.5347,39.9,2.35
Jieshi,41,CN,1635042016,68,22.8134,115.8257,70.95,8.97
Kanye,1,BW,1635042016,52,-24.9667,25.3327,54.32,13.8
Mocuba,14,MZ,1635041831,67,-16.8392,36.9856,72.27,3.67
Strezhevoy,100,RU,1635042017,96,60.7333,77.5889,39.18,13.06
Seoul,7,KR,1635041466,43,37.5683,126.9778,58.51,2.28
Taikang,0,CN,1635042017,37,46.8333,124.4167,52.25,6.29
Adrar,19,MR,1635041393,16,20.5022,-10.0711,78.24,9.17
Farsund,100,NO,1635042017,80,58.0948,6.8047,53.94,15.7
Asău,96,RO,1635041447,65,46.4333,26.4,41.95,1.59
Labuhan,57,ID,1635042018,61,-6.8844,112.2051,87.19,2.89
Anadyr,40,RU,1635041484,85,64.75,177.4833,1.9,8.95
Varkaus,19,FI,1635041776,92,62.3153,27.873,30.31,6.11
Katsuura,15,JP,1635041459,52,35.1333,140.3,60.91,6.15
Hirara,75,JP,1635042018,65,24.8,125.2833,80.46,13.8
Yeppoon,99,AU,1635042018,69,-23.1333,150.7333,91.18,12.15
Luga,47,RU,1635042019,90,58.7372,29.8453,32.31,8.48
Moose Factory,90,CA,1635041443,100,51.2585,-80.6094,35.58,2.3
Province of Mantua,40,IT,1635041750,69,45.1667,10.7833,57.72,7.0
Sayyan,40,YE,1635041219,43,15.1718,44.3244,51.44,4.54
Urucará,99,BR,1635042019,87,-2.5364,-57.76,77.34,2.62
Glasgow,90,GB,1635041986,92,55.8652,-4.2576,55.22,3.0
Conway,90,US,1635042019,81,35.0887,-92.4421,75.45,8.05
Saint-Félicien,75,CA,1635041739,80,48.6501,-72.4491,37.9,5.75
Alofi,98,NU,1635042020,50,-19.0595,-169.9187,78.69,19.57
Campbell River,90,CA,1635042020,96,50.0163,-125.2446,49.53,4.0
Auki,38,SB,1635042020,68,-8.7676,160.7034,86.13,7.05
Tobol'sk,6,RU,1635041900,88,58.2,68.2667,38.86,11.3
Udachny,100,RU,1635042021,93,66.4167,112.4,26.44,20.42
Castle Rock,100,US,1635042021,29,39.3722,-104.8561,61.18,8.01
Port-Cartier,100,CA,1635042021,94,50.0334,-66.8654,46.62,2.21
Muros,1,ES,1635042022,95,42.7762,-9.0603,56.84,6.06
Boali,53,CF,1635042022,96,4.8005,18.1275,70.72,2.57
Kolkwitz,11,DE,1635042022,95,51.75,14.25,37.04,4.52
Mahébourg,78,MU,1635041445,72,-20.4081,57.7,74.25,11.95
Olafsvik,100,IS,1635041489,83,64.8945,-23.7142,45.1,12.35
Ixtlán de los Hervores,91,MX,1635042023,70,20.1833,-102.4,63.79,2.21
Mujiayingzi,3,CN,1635041451,36,42.1167,118.7833,50.72,5.19
Peñón Blanco,0,MX,1635042023,32,24.7897,-104.0369,66.04,1.95
Mubende,100,UG,1635042023,99,0.5606,31.39,60.22,1.43
Launceston,75,AU,1635042024,60,-41.45,147.1667,60.8,7.0
Lędziny,23,PL,1635042024,96,50.1426,19.1315,42.64,4.9
Mogwase,0,ZA,1635042024,25,-25.185,27.2665,62.17,7.38
Winchester,90,GB,1635042025,74,51.0651,-1.3187,55.51,11.5
La Ronge,6,CA,1635041497,73,55.1001,-105.2842,37.44,15.95
Fort-Shevchenko,3,KZ,1635042025,69,44.5086,50.263,54.14,11.9
Bonthe,100,SL,1635042025,91,7.5264,-12.505,76.33,2.62
Port Lincoln,15,AU,1635041437,59,-34.7333,135.8667,60.3,11.32
Barão de Melgaço,78,BR,1635042026,49,-16.1944,-55.9675,90.12,12.01
Staropesterevo,100,RU,1635042026,79,54.5001,86.4094,40.71,23.0
Kailua,20,US,1635042026,65,21.4022,-157.7394,84.18,9.22
Padang,84,ID,1635041981,84,-0.9492,100.3543,80.65,4.92
Acaraú,89,BR,1635042027,81,-2.8856,-40.12,79.66,12.24
Walvis Bay,6,NA,1635041554,93,-22.9575,14.5053,58.08,9.91
Machinga,64,MW,1635042027,39,-15.1685,35.3,74.44,3.89
Dhidhdhoo,100,MV,1635041532,78,6.8833,73.1,81.55,11.83
Chase,100,CA,1635041540,93,50.8165,-119.6857,53.35,3.27
Sawākin,0,SD,1635042028,76,19.1059,37.3321,79.07,5.17
Bafoulabé,65,ML,1635042028,75,13.8065,-10.8321,78.8,3.62
Luanda,75,AO,1635041840,83,-8.8368,13.2343,75.2,8.05
Port Macquarie,10,AU,1635042029,73,-31.4333,152.9167,81.9,20.71
Avera,0,US,1635041401,62,33.194,-82.5271,61.72,4.07
Qandala,93,SO,1635041842,68,11.472,49.8728,77.68,1.86
Srednekolymsk,45,RU,1635042029,87,67.45,153.6833,-2.42,4.29
Ambilobe,98,MG,1635041492,91,-13.2,49.05,72.88,3.36
Morondava,0,MG,1635042029,79,-20.2833,44.2833,67.8,6.46
Pangoa,97,PE,1635042030,77,-12.1167,-73.0,73.69,2.39
Ordubad,0,AZ,1635042030,50,38.9059,46.0234,39.29,3.24
Mogadishu,6,SO,1635041774,82,2.0371,45.3438,79.09,12.26
Tomatlán,99,MX,1635042030,95,19.9333,-105.25,76.17,0.31
Saint-Prosper,100,CA,1635042031,82,46.2117,-70.4811,38.68,3.47
Bathsheba,20,BB,1635041433,69,13.2167,-59.5167,83.01,20.71
Hope,40,US,1635041836,71,33.6671,-93.5916,78.85,11.12
Contamana,14,PE,1635042031,59,-7.3333,-75.0167,83.46,4.88
Bechem,93,GH,1635042031,99,7.0903,-2.025,70.16,1.12
Saint George,1,US,1635042032,33,37.1041,-113.5841,68.59,1.99
Ampére,100,BR,1635042032,98,-25.915,-53.4728,62.24,3.47
Atambua,32,ID,1635041925,52,-9.1061,124.8925,87.73,4.56
Noyabrsk,100,RU,1635042032,92,63.1994,75.4507,34.52,17.16
Arman',58,RU,1635042033,54,59.7,150.1667,24.85,10.27
Soavinandriana,0,MG,1635042033,53,-19.1667,46.7333,58.08,3.53
Dunedin,87,NZ,1635041811,72,-45.8742,170.5036,60.8,5.99
San Pedro de Macorís,19,DO,1635042033,86,18.4616,-69.2972,80.49,8.75
Pedernales,62,DO,1635042034,70,18.0384,-71.744,80.65,6.11
Kantābānji,6,IN,1635042034,71,20.4833,82.9167,69.8,2.01
Dudinka,99,RU,1635041922,91,69.4058,86.1778,23.76,8.34
Dunmore Town,52,BS,1635042034,75,25.5,-76.65,80.69,8.57
Bubaque,100,GW,1635042034,74,11.2833,-15.8333,82.6,7.07
Kalāleh,0,IR,1635042035,81,37.3807,55.4916,47.8,0.0
Talnakh,100,RU,1635041524,91,69.4865,88.3972,22.86,6.35
Maltahöhe,0,NA,1635042035,68,-24.8333,16.9833,48.65,13.33
Cleveland,20,US,1635041940,88,41.4995,-81.6954,49.75,6.91
Solenzo,77,BF,1635042036,64,12.1833,-4.0833,79.83,1.45
Ikungi,43,TZ,1635042036,67,-5.1333,34.7667,65.35,9.37
Tiksi,100,RU,1635042036,95,71.6872,128.8694,2.44,10.07
Kaset Sombun,47,TH,1635042037,76,16.2805,101.9542,75.76,5.66
Tuim,74,RU,1635042037,65,54.3417,89.9261,38.07,22.35
Naples,0,IT,1635041839,73,40.8333,14.25,67.75,7.0
Yuncheng,20,CN,1635042037,53,35.0231,110.9928,55.83,1.23
Kristinestad,90,FI,1635042038,79,62.2743,21.376,34.05,5.06
Ramnagar,0,IN,1635042038,74,29.4,79.1167,66.47,4.25
Mizdah,100,LY,1635042038,51,31.4451,12.9801,70.21,7.78
São Luís do Quitunde,28,BR,1635041951,89,-9.3183,-35.5611,80.04,6.78
Chalinze,57,TZ,1635042039,92,-6.6378,38.354,69.96,2.06
Shergarh,0,IN,1635042039,77,28.65,79.35,69.37,3.98
Nanchang,100,CN,1635042039,71,28.6833,115.8833,60.55,3.31
Evanston,20,US,1635041802,68,42.0411,-87.6901,48.2,0.0
Yatou,3,CN,1635042040,49,37.15,122.3833,58.57,3.04
Eyl,6,SO,1635042040,79,7.9803,49.8164,76.68,7.07
Cloquet,1,US,1635042040,89,46.7216,-92.4594,42.39,0.0
Kultuk,94,RU,1635042041,67,51.7208,103.6956,42.01,2.8
Opuwo,8,NA,1635041811,29,-18.0607,13.84,62.98,0.74
Necochea,0,AR,1635041445,62,-38.5473,-58.7368,46.58,8.88
Soyo,100,AO,1635042019,85,-6.1349,12.3689,77.56,9.53
Ilula,48,TZ,1635042041,83,-7.6766,36.0366,60.64,4.47
Saint-Paul,1,RE,1635042041,93,-21.0096,55.2707,73.51,5.95
Mbandaka,69,CD,1635042042,98,0.0487,18.2603,71.11,3.58
Burē,10,ET,1635042042,74,10.7,37.0667,52.61,4.23
Abapó,100,BO,1635042042,84,-18.8333,-63.4667,66.67,9.46
Opunake,100,NZ,1635042042,87,-39.4556,173.8583,61.34,11.14
Kabinda,99,CD,1635042043,77,-6.1333,24.4833,69.35,2.06
Ust-Kuyga,100,RU,1635042043,95,70.0167,135.6,2.82,2.1
Ongandjera,7,NA,1635042043,26,-17.8833,15.0667,61.99,9.01
Weihai,0,CN,1635042044,51,37.5017,122.1136,56.88,1.99
Nuuk,90,GL,1635041898,40,64.1835,-51.7216,29.01,14.97
Sobolevo,99,RU,1635041883,87,54.4299,31.8996,37.85,12.64
Örnsköldsvik,90,SE,1635041512,93,63.2909,18.7153,24.62,4.61
Methven,79,NZ,1635041539,63,-43.6333,171.65,68.92,6.24
Algiers,40,DZ,1635041909,94,36.7525,3.042,58.82,8.05
Antalaha,76,MG,1635042044,93,-14.9003,50.2788,73.94,2.66
Lida,43,BY,1635042045,90,53.8833,25.2997,36.19,10.98
Okakarara,0,NA,1635042045,17,-20.5833,17.4333,63.5,7.9
Tarakan,20,ID,1635041512,79,3.3,117.6333,85.5,4.61
Roald,90,NO,1635041899,66,62.5833,6.1333,51.94,12.66
Moa,24,CU,1635042045,83,20.6569,-74.9403,78.85,7.05
Levice,0,SK,1635042046,78,48.2156,18.6071,39.49,3.67
Jalingo,100,NG,1635042046,96,8.8833,11.3667,72.81,3.47
Sioux Lookout,75,CA,1635042046,93,50.1001,-91.917,35.98,4.61
Nago,100,JP,1635042046,71,26.5881,127.9761,78.87,6.08
Bereket,4,TM,1635042047,24,39.2446,55.5154,50.18,3.51
Hanzhong,4,CN,1635042047,75,33.0728,107.0303,57.0,1.81
Bārmer,0,IN,1635042047,79,25.75,71.3833,72.81,10.76
Churapcha,100,RU,1635042048,96,62.0025,132.4325,26.19,9.24
Piacenza,100,IT,1635042048,91,45.0468,9.6994,57.72,6.38
Tulum,62,MX,1635042017,92,20.2167,-87.4667,81.99,5.3
Aklavik,75,CA,1635041461,96,68.2191,-135.0107,22.41,1.9
Sosnovo-Ozerskoye,81,RU,1635042048,61,52.5249,111.5418,33.42,10.07
Kangaatsiaq,96,GL,1635041551,86,68.3065,-53.4641,23.86,7.94
Matara,49,LK,1635041506,72,5.9485,80.5353,81.93,11.16
Chitral,98,PK,1635042049,42,35.8462,71.7858,48.56,5.14
Russell,1,US,1635041480,87,32.3502,-85.1999,60.4,0.0
Khani,3,GE,1635042049,54,41.9563,42.9566,35.17,4.81
Port Blair,40,IN,1635042049,79,11.6667,92.75,84.24,2.3
Pyinmana,37,MM,1635042050,87,19.7333,96.2167,77.11,0.76
Marzuq,99,YE,1635042050,35,14.4,46.4667,66.72,2.42
Kruisfontein,5,ZA,1635041559,75,-34.0033,24.7314,50.79,8.01
Palauig,100,PH,1635042050,63,15.435,119.9045,85.06,1.5
Ust-Tsilma,75,RU,1635041846,98,65.441,52.1498,21.83,4.16
Pacific Grove,90,US,1635041934,79,36.6177,-121.9166,62.76,4.0
Katangli,54,RU,1635041512,76,51.7102,143.2326,42.76,23.42
Les Cayes,86,HT,1635042051,80,18.2,-73.75,78.49,4.0
Husavik,100,IS,1635041449,96,66.0449,-17.3389,39.78,4.88
Yining,1,CN,1635042051,60,29.0361,114.5636,63.72,2.33
Zonguldak,13,TR,1635042052,76,41.25,31.8333,48.33,4.36
Olinda,75,BR,1635042052,78,-8.0089,-34.8553,80.33,8.05
Virden,100,US,1635042052,76,39.5009,-89.7679,56.05,8.3
Peski,100,RU,1635042053,92,55.2163,38.7626,39.79,10.54
Belmonte,70,BR,1635041466,92,-15.8631,-38.8828,75.7,4.68
Monte Patria,0,CL,1635042053,44,-30.6919,-70.9467,63.52,2.21
Oktyabr'skiy,100,RU,1635041991,95,54.4815,53.471,42.76,1.52
State College,40,US,1635041777,92,40.7934,-77.86,45.54,1.99
Khrebtovaya,100,RU,1635042053,73,56.7032,104.2494,32.54,10.29
Kushmurun,95,KZ,1635042054,90,52.4503,64.6311,46.87,10.47
Fort Wayne,40,US,1635041786,89,41.1306,-85.1289,48.06,3.44
Cutler Bay,75,US,1635042054,88,25.5783,-80.3377,81.01,0.0
Krasnosel'kup,100,RU,1635041457,99,65.7,82.4667,32.38,11.54
Ji’an,100,CN,1635042055,77,27.1172,114.9793,59.14,4.97
Beringovskiy,2,RU,1635041897,73,63.05,179.3167,13.21,7.2
Tessalit,38,ML,1635041460,24,20.1986,1.0114,81.3,9.35
Kochevo,79,RU,1635042055,95,59.5994,54.3125,34.68,4.56
Port Moresby,40,PG,1635042055,66,-9.4431,147.1797,89.02,11.5
Trat,90,TH,1635042056,80,12.5,102.5,86.25,12.64
Macapá,20,BR,1635041879,89,0.0389,-51.0664,82.38,6.91
Eureka,100,US,1635042056,82,40.8021,-124.1637,59.25,5.99
Guerrero Negro,4,MX,1635042056,79,27.9769,-114.0611,66.83,15.75
Kapiri Mposhi,32,ZM,1635042057,38,-13.9652,28.6809,72.43,5.37
Paamiut,92,GL,1635041502,45,61.994,-49.6678,31.5,7.05
Kualakapuas,36,ID,1635042057,60,-3.0091,114.3876,87.96,2.35
Menongue,87,AO,1635042057,74,-14.6585,17.691,65.14,4.29
Essex,90,US,1635042057,76,40.7834,-74.2163,56.68,11.5
Dombasle-sur-Meurthe,0,FR,1635042058,93,48.6252,6.3497,39.69,2.3
Zhangye,50,CN,1635041827,49,38.9342,100.4517,47.57,7.58
Songjianghe,0,CN,1635042058,41,42.1859,127.479,47.98,4.29
Yuanping,68,CN,1635041886,52,38.7153,112.7575,49.44,1.16
Martinsville,40,US,1635042059,90,36.6915,-79.8725,58.05,0.0
Port Hedland,38,AU,1635041465,10,-20.3167,118.5667,98.65,18.41
Korla,68,CN,1635041397,37,41.7597,86.1469,50.07,3.02
Ocniţa,100,RO,1635042059,99,44.9833,25.55,53.11,2.3
Viedma,0,AR,1635042026,26,-40.8135,-62.9967,46.69,10.74
Kavieng,17,PG,1635041212,67,-2.5744,150.7967,85.96,12.35
Mayumba,100,GA,1635042059,88,-3.432,10.6554,76.5,3.96
Mildura,2,AU,1635042060,30,-34.2,142.15,66.16,11.5
Huarmey,30,PE,1635041473,85,-10.0681,-78.1522,63.55,10.92
Newport,100,GB,1635042060,74,51.5877,-2.9984,55.08,19.39
Desnogorsk,100,RU,1635042061,91,54.1508,33.2815,37.74,11.3
Batticaloa,70,LK,1635042061,82,7.7102,81.6924,78.8,5.7
Tekeli,0,KZ,1635042061,41,44.83,78.8239,35.01,8.34
North Platte,90,US,1635041853,89,41.1239,-100.7654,49.98,13.8
Kutum,67,SD,1635042062,27,14.2,24.6667,72.68,13.6
Lashio,100,MM,1635042062,99,22.9333,97.75,65.91,0.69
Tigil',100,RU,1635041501,88,57.8,158.6667,30.54,6.15
Châtellerault,0,FR,1635042063,85,46.8,0.5333,34.52,3.04
Kitami,2,JP,1635042063,52,43.8031,143.8908,58.28,5.17
Kilrush,19,IE,1635042063,90,52.6397,-9.4833,53.89,11.97
Bartica,100,GY,1635042064,99,6.4,-58.6167,77.32,1.57
El Salvador,100,SV,1635041886,98,13.8333,-88.9167,72.0,2.26
Cayenne,90,GF,1635042064,91,4.9333,-52.3333,78.1,2.3
Santa Cruz de la Sierra,20,BO,1635041817,66,-17.8,-63.1667,85.46,13.8
Mehamn,100,NO,1635041821,64,71.0357,27.8492,36.57,19.71
Usinsk,12,RU,1635042065,93,65.9939,57.5281,18.54,10.47
Kenai,1,US,1635041549,70,60.5544,-151.2583,45.09,16.11
Lewistown,90,US,1635042065,93,40.5992,-77.5714,48.78,3.44
Talaya,93,RU,1635042065,89,61.3833,152.75,4.71,4.03
Umm Kaddadah,50,SD,1635041544,23,13.6017,26.6876,81.75,17.45
Aykhal,100,RU,1635041529,93,66.0,111.5,24.44,22.91
Gornopravdinsk,62,RU,1635041494,84,60.05,69.9,37.72,12.55
Kudahuvadhoo,97,MV,1635042066,74,2.6708,72.8944,82.4,13.27
Dessie,11,ET,1635042066,65,11.1333,39.6333,49.12,1.66
Smidovich,0,RU,1635042067,49,48.6,133.8167,50.94,10.58
Sechura,96,PE,1635041499,78,-5.5569,-80.8222,65.95,15.77
Arrondissement de Gap,0,FR,1635042067,82,44.6667,6.0,28.83,3.78
Kaeo,63,NZ,1635042067,98,-35.1,173.7833,66.33,5.5
Gizo Government Station,15,SB,1635041839,67,-8.103,156.8419,85.62,7.72
